{
    "metadata": {
        "resultset": {
            "count": 4346,
            "limit": 1000,
            "offset": 4001
        }
    },
    "results": [
        {
            "datacoverage": 0.8983,
            "elevation": 2485.3,
            "elevationUnit": "METERS",
            "id": "COOP:040819",
            "latitude": 37.248,
            "longitude": -118.5813,
            "maxdate": "2009-09-01",
            "mindate": "1959-10-01",
            "name": "BISHOP CRK INTAKE 2, CA US"
        },
        {
            "datacoverage": 1,
            "elevation": 2485.3,
            "elevationUnit": "METERS",
            "id": "GHCND:USC00040819",
            "latitude": 37.248,
            "longitude": -118.5813,
            "maxdate": "2010-12-31",
            "mindate": "1959-10-01",
            "name": "BISHOP CRK INTAKE 2, CA US"
        },
        {
            "datacoverage": 0.79,
            "elevation": 1250.3,
            "elevationUnit": "METERS",
            "id": "WBAN:23157",
            "latitude": 37.3711,
            "longitude": -118.358,
            "maxdate": "2020-11-22",
            "mindate": "1943-01-16",
            "name": "BISHOP AIRPORT, CA US"
        },
        {
            "datacoverage": 0.9977,
            "elevation": 1250.3,
            "elevationUnit": "METERS",
            "id": "COOP:040822",
            "latitude": 37.3711,
            "longitude": -118.358,
            "maxdate": "2015-11-01",
            "mindate": "1943-09-01",
            "name": "BISHOP AIRPORT, CA US"
        },
        {
            "datacoverage": 1,
            "elevation": 1250.3,
            "elevationUnit": "METERS",
            "id": "GHCND:USW00023157",
            "latitude": 37.3711,
            "longitude": -118.358,
            "maxdate": "2020-11-22",
            "mindate": "1895-01-01",
            "name": "BISHOP AIRPORT, CA US"
        },
        {
            "datacoverage": 0.8715,
            "elevation": 1382.9,
            "elevationUnit": "METERS",
            "id": "GHCND:US1CAIN0005",
            "latitude": 37.411456,
            "longitude": -118.547408,
            "maxdate": "2020-11-05",
            "mindate": "2011-02-01",
            "name": "BISHOP 8.8 WNW, CA US"
        },
        {
            "datacoverage": 1,
            "elevation": 1829.4,
            "elevationUnit": "METERS",
            "id": "GHCND:US1CAIN0002",
            "latitude": 37.322667,
            "longitude": -118.54037,
            "maxdate": "2019-02-15",
            "mindate": "2009-10-01",
            "name": "BISHOP 8.5 WSW, CA US"
        },
        {
            "datacoverage": 0.9986,
            "elevation": 1282,
            "elevationUnit": "METERS",
            "id": "GHCND:US1CAIN0010",
            "latitude": 37.384427,
            "longitude": -118.422813,
            "maxdate": "2020-04-18",
            "mindate": "2015-08-01",
            "name": "BISHOP 1.8 NW, CA US"
        },
        {
            "datacoverage": 0.9175,
            "elevation": 1286.6,
            "elevationUnit": "METERS",
            "id": "GHCND:US1CAIN0012",
            "latitude": 37.3474,
            "longitude": -118.41534,
            "maxdate": "2020-09-28",
            "mindate": "2015-11-01",
            "name": "BISHOP 1.7 SW, CA US"
        },
        {
            "datacoverage": 0.9999,
            "elevation": 1274.4,
            "elevationUnit": "METERS",
            "id": "GHCND:US1CAIN0004",
            "latitude": 37.38781,
            "longitude": -118.4141,
            "maxdate": "2020-11-06",
            "mindate": "2010-10-01",
            "name": "BISHOP 1.7 NW, CA US"
        },
        {
            "datacoverage": 0.0973,
            "elevation": 1275,
            "elevationUnit": "METERS",
            "id": "GHCND:US1CAIN0007",
            "latitude": 37.385441,
            "longitude": -118.414984,
            "maxdate": "2020-09-08",
            "mindate": "2013-01-02",
            "name": "BISHOP 1.6 NW, CA US"
        },
        {
            "datacoverage": 1,
            "elevation": 1281.1,
            "elevationUnit": "METERS",
            "id": "GHCND:US1CAIN0013",
            "latitude": 37.3786,
            "longitude": -118.4178,
            "maxdate": "2020-11-06",
            "mindate": "2016-10-28",
            "name": "BISHOP 1.4 WNW, CA US"
        },
        {
            "datacoverage": 1,
            "elevation": 1261.9,
            "elevationUnit": "METERS",
            "id": "GHCND:US1CAIN0001",
            "latitude": 37.3626,
            "longitude": -118.3883,
            "maxdate": "2015-11-01",
            "mindate": "2009-11-01",
            "name": "BISHOP 0.6 SE, CA US"
        },
        {
            "datacoverage": 0.9775,
            "elevation": 220.1,
            "elevationUnit": "METERS",
            "id": "COOP:040818",
            "latitude": 34.18333,
            "longitude": -118.5,
            "maxdate": "1977-06-01",
            "mindate": "1948-01-01",
            "name": "BIRMINGHAM GEN HOSPITAL, CA US"
        },
        {
            "datacoverage": 0.9734,
            "elevation": 220.1,
            "elevationUnit": "METERS",
            "id": "GHCND:USC00040818",
            "latitude": 34.18333,
            "longitude": -118.5,
            "maxdate": "1951-08-31",
            "mindate": "1948-07-01",
            "name": "BIRMINGHAM GEN HOSPITAL, CA US"
        },
        {
            "datacoverage": 1,
            "elevation": 709,
            "elevationUnit": "METERS",
            "id": "GHCND:USC00040798",
            "latitude": 34.29481,
            "longitude": -118.18849,
            "maxdate": "2020-09-30",
            "mindate": "1932-01-01",
            "name": "BIG TUJUNGA DAM FC46, CA US"
        },
        {
            "datacoverage": 0.9254,
            "elevation": 709,
            "elevationUnit": "METERS",
            "id": "COOP:040798",
            "latitude": 34.29481,
            "longitude": -118.18849,
            "maxdate": "2015-11-01",
            "mindate": "1940-01-01",
            "name": "BIG TUJUNGA DAM FC46, CA US"
        },
        {
            "datacoverage": 1,
            "elevation": 61,
            "elevationUnit": "METERS",
            "id": "GHCND:USC00040790",
            "latitude": 36.2472,
            "longitude": -121.7802,
            "maxdate": "2020-11-22",
            "mindate": "1915-01-01",
            "name": "BIG SUR STATION, CA US"
        },
        {
            "datacoverage": 0.9804,
            "elevation": 61,
            "elevationUnit": "METERS",
            "id": "COOP:040790",
            "latitude": 36.2472,
            "longitude": -121.7802,
            "maxdate": "2015-11-01",
            "mindate": "1931-01-01",
            "name": "BIG SUR STATION, CA US"
        },
        {
            "datacoverage": 0.9629,
            "elevation": 137.2,
            "elevationUnit": "METERS",
            "id": "GHCND:USR0000CBSR",
            "latitude": 36.2356,
            "longitude": -121.785,
            "maxdate": "2020-11-23",
            "mindate": "2001-07-01",
            "name": "BIG SUR CALIFORNIA, CA US"
        },
        {
            "datacoverage": 1,
            "elevation": 335.3,
            "elevationUnit": "METERS",
            "id": "GHCND:US1CAMT0023",
            "latitude": 36.3980210983642,
            "longitude": -121.868510842323,
            "maxdate": "2019-12-04",
            "mindate": "2010-02-01",
            "name": "BIG SUR 9.5 NNW, CA US"
        },
        {
            "datacoverage": 0.7232,
            "elevation": 741.9,
            "elevationUnit": "METERS",
            "id": "GHCND:US1CAMT0027",
            "latitude": 36.3532019,
            "longitude": -121.8183348,
            "maxdate": "2020-06-01",
            "mindate": "2010-11-01",
            "name": "BIG SUR 7.2 NNW, CA US"
        },
        {
            "datacoverage": 0.8542,
            "elevation": 251.2,
            "elevationUnit": "METERS",
            "id": "GHCND:US1CAMT0011",
            "latitude": 36.2242,
            "longitude": -121.7627,
            "maxdate": "2016-07-16",
            "mindate": "2008-11-01",
            "name": "BIG SUR 4.0 SE, CA US"
        },
        {
            "datacoverage": 0.7129,
            "elevation": 225.2,
            "elevationUnit": "METERS",
            "id": "GHCND:US1CAMT0014",
            "latitude": 36.236029,
            "longitude": -121.768753,
            "maxdate": "2018-12-06",
            "mindate": "2009-01-01",
            "name": "BIG SUR 3.2 SE, CA US"
        },
        {
            "datacoverage": 0.9801,
            "elevation": 457.2,
            "elevationUnit": "METERS",
            "id": "GHCND:USR0000CBIR",
            "latitude": 38.0394,
            "longitude": -122.57,
            "maxdate": "2020-11-23",
            "mindate": "2003-09-01",
            "name": "BIG ROCK CALIFORNIA, CA US"
        },
        {
            "datacoverage": 0.9886,
            "elevation": 2086.4,
            "elevationUnit": "METERS",
            "id": "COOP:040779",
            "latitude": 34.38333,
            "longitude": -117.68333,
            "maxdate": "1996-11-01",
            "mindate": "1931-01-01",
            "name": "BIG PINES PARK FC83B, CA US"
        },
        {
            "datacoverage": 1,
            "elevation": 2086.4,
            "elevationUnit": "METERS",
            "id": "GHCND:USC00040779",
            "latitude": 34.38333,
            "longitude": -117.68333,
            "maxdate": "2010-12-31",
            "mindate": "1926-01-01",
            "name": "BIG PINES PARK FC83B, CA US"
        },
        {
            "datacoverage": 1,
            "elevation": 2108.3,
            "elevationUnit": "METERS",
            "id": "GHCND:USR0000CBIP",
            "latitude": 34.3789,
            "longitude": -117.6919,
            "maxdate": "2020-11-23",
            "mindate": "2002-11-01",
            "name": "BIG PINES CALIFORNIA, CA US"
        },
        {
            "datacoverage": 1,
            "elevation": 2091.2,
            "elevationUnit": "METERS",
            "id": "GHCND:USR0000CBPI",
            "latitude": 34.3194,
            "longitude": -117.0131,
            "maxdate": "2020-11-23",
            "mindate": "2001-12-01",
            "name": "BIG PINE FLAT CALIFORNIA, CA US"
        },
        {
            "datacoverage": 0.9819,
            "elevation": 1222.2,
            "elevationUnit": "METERS",
            "id": "GHCND:US1CAIN0011",
            "latitude": 37.17774,
            "longitude": -118.30545,
            "maxdate": "2017-11-18",
            "mindate": "2015-11-15",
            "name": "BIG PINE 1.0 NW, CA US"
        },
        {
            "datacoverage": 0.9986,
            "elevation": 1210.7,
            "elevationUnit": "METERS",
            "id": "GHCND:US1CAIN0009",
            "latitude": 37.168793,
            "longitude": -118.287757,
            "maxdate": "2019-02-15",
            "mindate": "2015-05-01",
            "name": "BIG PINE 0.5 ENE, CA US"
        },
        {
            "datacoverage": 1,
            "elevation": 1088.1,
            "elevationUnit": "METERS",
            "id": "GHCND:USR0000CBIH",
            "latitude": 41.0975,
            "longitude": -123.6358,
            "maxdate": "2020-11-23",
            "mindate": "1997-03-01",
            "name": "BIG HILL CALIFORNIA, CA US"
        },
        {
            "datacoverage": 0.9722,
            "elevation": 484.9,
            "elevationUnit": "METERS",
            "id": "GHCND:USC00040758",
            "latitude": 34.16667,
            "longitude": -117.81667,
            "maxdate": "1980-12-31",
            "mindate": "1930-01-01",
            "name": "BIG DALTON DAM FC223, CA US"
        },
        {
            "datacoverage": 0.9983,
            "elevation": 484.9,
            "elevationUnit": "METERS",
            "id": "COOP:040758",
            "latitude": 34.16667,
            "longitude": -117.81667,
            "maxdate": "1980-12-01",
            "mindate": "1931-01-01",
            "name": "BIG DALTON DAM FC223, CA US"
        },
        {
            "datacoverage": 1,
            "elevation": 1486.8,
            "elevationUnit": "METERS",
            "id": "GHCND:USC00040755",
            "latitude": 37.2064,
            "longitude": -119.2419,
            "maxdate": "2011-06-30",
            "mindate": "1915-06-01",
            "name": "BIG CREEK PH 1, CA US"
        },
        {
            "datacoverage": 0.5386,
            "elevation": 1486.8,
            "elevationUnit": "METERS",
            "id": "COOP:040755",
            "latitude": 37.2064,
            "longitude": -119.2419,
            "maxdate": "2012-12-01",
            "mindate": "1931-01-01",
            "name": "BIG CREEK PH 1, CA US"
        },
        {
            "datacoverage": 0.9996,
            "elevation": 259.1,
            "elevationUnit": "METERS",
            "id": "COOP:040752",
            "latitude": 38.61667,
            "longitude": -120.9,
            "maxdate": "1942-10-01",
            "mindate": "1934-07-01",
            "name": "BIG CANYON MINE, CA US"
        },
        {
            "datacoverage": 0.993,
            "elevation": 1751.1,
            "elevationUnit": "METERS",
            "id": "GHCND:USC00040747",
            "latitude": 39.3,
            "longitude": -120.51667,
            "maxdate": "1972-04-30",
            "mindate": "1961-01-01",
            "name": "BIG BEN RANGER STATION, CA US"
        },
        {
            "datacoverage": 0.9855,
            "elevation": 1751.1,
            "elevationUnit": "METERS",
            "id": "COOP:040747",
            "latitude": 39.3,
            "longitude": -120.51667,
            "maxdate": "1972-06-01",
            "mindate": "1961-01-01",
            "name": "BIG BEN RANGER STATION, CA US"
        },
        {
            "datacoverage": 1,
            "elevation": 2058.3,
            "elevationUnit": "METERS",
            "id": "GHCND:USC00040741",
            "latitude": 34.243,
            "longitude": -116.917,
            "maxdate": "2020-11-20",
            "mindate": "1960-01-01",
            "name": "BIG BEAR LAKE, CA US"
        },
        {
            "datacoverage": 0.9925,
            "elevation": 2058.3,
            "elevationUnit": "METERS",
            "id": "COOP:040741",
            "latitude": 34.243,
            "longitude": -116.917,
            "maxdate": "2015-11-01",
            "mindate": "1960-07-01",
            "name": "BIG BEAR LAKE, CA US"
        },
        {
            "datacoverage": 0.9391,
            "elevation": 2077.2,
            "elevationUnit": "METERS",
            "id": "COOP:040742",
            "latitude": 34.2414,
            "longitude": -116.9751,
            "maxdate": "2014-01-01",
            "mindate": "1933-07-01",
            "name": "BIG BEAR LAKE DAM, CA US"
        },
        {
            "datacoverage": 0.6701,
            "elevation": 2077.2,
            "elevationUnit": "METERS",
            "id": "GHCND:USC00040742",
            "latitude": 34.2414,
            "longitude": -116.9751,
            "maxdate": "1971-09-30",
            "mindate": "1914-12-01",
            "name": "BIG BEAR LAKE DAM, CA US"
        },
        {
            "datacoverage": 1,
            "elevation": 2057.1,
            "elevationUnit": "METERS",
            "id": "WBAN:00115",
            "latitude": 34.264,
            "longitude": -116.854,
            "maxdate": "2020-11-19",
            "mindate": "2014-07-31",
            "name": "BIG BEAR CITY AIRPORT, CA US"
        },
        {
            "datacoverage": 0.9654,
            "elevation": 457.2,
            "elevationUnit": "METERS",
            "id": "GHCND:USR0000CBBR",
            "latitude": 40.7333,
            "longitude": -123.2333,
            "maxdate": "2020-11-23",
            "mindate": "1989-11-01",
            "name": "BIG BAR CALIFORNIA, CA US"
        },
        {
            "datacoverage": 1,
            "elevation": 381.9,
            "elevationUnit": "METERS",
            "id": "GHCND:USC00040738",
            "latitude": 40.7405,
            "longitude": -123.2077,
            "maxdate": "2017-12-28",
            "mindate": "1943-10-01",
            "name": "BIG BAR 4 E, CA US"
        },
        {
            "datacoverage": 0.9919,
            "elevation": 381.9,
            "elevationUnit": "METERS",
            "id": "COOP:040738",
            "latitude": 40.7405,
            "longitude": -123.2077,
            "maxdate": "2015-11-01",
            "mindate": "1943-11-01",
            "name": "BIG BAR 4 E, CA US"
        },
        {
            "datacoverage": 0.0785,
            "elevation": 1257.3,
            "elevationUnit": "METERS",
            "id": "GHCND:USC00040731",
            "latitude": 41.1208,
            "longitude": -121.1347,
            "maxdate": "1951-09-30",
            "mindate": "1906-02-01",
            "name": "BIEBER, CA US"
        },
        {
            "datacoverage": 0.9783,
            "elevation": 1257.3,
            "elevationUnit": "METERS",
            "id": "COOP:040731",
            "latitude": 41.1208,
            "longitude": -121.1347,
            "maxdate": "2014-01-01",
            "mindate": "1948-01-01",
            "name": "BIEBER, CA US"
        },
        {
            "datacoverage": 0.74,
            "elevation": 716.3,
            "elevationUnit": "METERS",
            "id": "WBAN:03182",
            "latitude": 35.28333,
            "longitude": -116.63333,
            "maxdate": "2020-11-22",
            "mindate": "2005-08-14",
            "name": "BICYCLE LAKE FORT IRWIN ARMY AIR FIELD, CA US"
        },
        {
            "datacoverage": 0.9096,
            "elevation": 384,
            "elevationUnit": "METERS",
            "id": "GHCND:USR0000CBEV",
            "latitude": 34.125,
            "longitude": -118.4122,
            "maxdate": "2020-11-23",
            "mindate": "1997-11-01",
            "name": "BEVERLY HILLS CALIFORNIA, CA US"
        },
        {
            "datacoverage": 0.8921,
            "elevation": 808,
            "elevationUnit": "METERS",
            "id": "GHCND:USC00040721",
            "latitude": 41.81667,
            "longitude": -122.5,
            "maxdate": "1950-01-31",
            "mindate": "1948-01-01",
            "name": "BETTS RANCH, CA US"
        },
        {
            "datacoverage": 0.9729,
            "elevation": 808,
            "elevationUnit": "METERS",
            "id": "COOP:040721",
            "latitude": 41.81667,
            "longitude": -122.5,
            "maxdate": "1950-01-01",
            "mindate": "1943-10-01",
            "name": "BETTS RANCH, CA US"
        },
        {
            "datacoverage": 0.9013,
            "elevation": 49.1,
            "elevationUnit": "METERS",
            "id": "GHCND:USC00040719",
            "latitude": 34.91667,
            "longitude": -120.35,
            "maxdate": "1943-04-30",
            "mindate": "1913-01-01",
            "name": "BETTERAVIA, CA US"
        },
        {
            "datacoverage": 1,
            "elevation": 49.1,
            "elevationUnit": "METERS",
            "id": "COOP:040719",
            "latitude": 34.91667,
            "longitude": -120.35,
            "maxdate": "1943-04-01",
            "mindate": "1931-01-01",
            "name": "BETTERAVIA, CA US"
        },
        {
            "datacoverage": 1,
            "elevation": 139.9,
            "elevationUnit": "METERS",
            "id": "GHCND:USC00040705",
            "latitude": 38.55,
            "longitude": -122.23333,
            "maxdate": "1970-06-30",
            "mindate": "1957-01-01",
            "name": "BERRYESSA LAKE, CA US"
        },
        {
            "datacoverage": 1,
            "elevation": 139.9,
            "elevationUnit": "METERS",
            "id": "COOP:040705",
            "latitude": 38.55,
            "longitude": -122.23333,
            "maxdate": "1970-06-01",
            "mindate": "1957-11-01",
            "name": "BERRYESSA LAKE, CA US"
        },
        {
            "datacoverage": 1,
            "elevation": 94.5,
            "elevationUnit": "METERS",
            "id": "GHCND:USC00040693",
            "latitude": 37.8744,
            "longitude": -122.2605,
            "maxdate": "2020-09-30",
            "mindate": "1893-01-01",
            "name": "BERKELEY, CA US"
        },
        {
            "datacoverage": 0.9476,
            "elevation": 94.5,
            "elevationUnit": "METERS",
            "id": "COOP:040693",
            "latitude": 37.8744,
            "longitude": -122.2605,
            "maxdate": "2015-11-01",
            "mindate": "1919-01-01",
            "name": "BERKELEY, CA US"
        },
        {
            "datacoverage": 0.9995,
            "elevation": 349.9,
            "elevationUnit": "METERS",
            "id": "GHCND:US1CAAL0018",
            "latitude": 37.857468,
            "longitude": -122.225616,
            "maxdate": "2020-03-04",
            "mindate": "2013-05-01",
            "name": "BERKELEY 4.0 E, CA US"
        },
        {
            "datacoverage": 1,
            "elevation": 268.8,
            "elevationUnit": "METERS",
            "id": "GHCND:US1CAAL0008",
            "latitude": 37.855675,
            "longitude": -122.230053,
            "maxdate": "2013-05-04",
            "mindate": "2010-02-01",
            "name": "BERKELEY 3.8 ESE, CA US"
        },
        {
            "datacoverage": 0.9819,
            "elevation": 13.7,
            "elevationUnit": "METERS",
            "id": "GHCND:US1CAAL0039",
            "latitude": 37.8552,
            "longitude": -122.28923,
            "maxdate": "2020-08-24",
            "mindate": "2017-07-01",
            "name": "BERKELEY 0.9 SSE, CA US"
        },
        {
            "datacoverage": 1,
            "elevation": 27.1,
            "elevationUnit": "METERS",
            "id": "GHCND:US1CAAL0020",
            "latitude": 37.8776359558105,
            "longitude": -122.287490844727,
            "maxdate": "2015-12-19",
            "mindate": "2014-01-01",
            "name": "BERKELEY 0.9 NE, CA US"
        },
        {
            "datacoverage": 0.9995,
            "elevation": 548.9,
            "elevationUnit": "METERS",
            "id": "COOP:040687",
            "latitude": 33.83333,
            "longitude": -116.15,
            "maxdate": "1937-11-01",
            "mindate": "1933-07-01",
            "name": "BERDOO CAMP, CA US"
        },
        {
            "datacoverage": 0.9979,
            "elevation": 1664.2,
            "elevationUnit": "METERS",
            "id": "COOP:040684",
            "latitude": 37.84278,
            "longitude": -118.47833,
            "maxdate": "2003-03-01",
            "mindate": "1964-10-01",
            "name": "BENTON INSPECTION STATION, CA US"
        },
        {
            "datacoverage": 1,
            "elevation": 1664.2,
            "elevationUnit": "METERS",
            "id": "GHCND:USC00040684",
            "latitude": 37.84278,
            "longitude": -118.47833,
            "maxdate": "2010-12-31",
            "mindate": "1964-10-01",
            "name": "BENTON INSPECTION STATION, CA US"
        },
        {
            "datacoverage": 0.9999,
            "elevation": 1661.2,
            "elevationUnit": "METERS",
            "id": "GHCND:USR0000CBEN",
            "latitude": 37.8431,
            "longitude": -118.4778,
            "maxdate": "2020-11-23",
            "mindate": "1994-05-01",
            "name": "BENTON CALIFORNIA, CA US"
        },
        {
            "datacoverage": 0.9854,
            "elevation": 6.1,
            "elevationUnit": "METERS",
            "id": "GHCND:USC00040682",
            "latitude": 38.25,
            "longitude": -121.43333,
            "maxdate": "1958-07-31",
            "mindate": "1911-01-01",
            "name": "BENSONS FERRY, CA US"
        },
        {
            "datacoverage": 1,
            "elevation": 6.1,
            "elevationUnit": "METERS",
            "id": "COOP:040682",
            "latitude": 38.25,
            "longitude": -121.43333,
            "maxdate": "1958-12-01",
            "mindate": "1913-01-01",
            "name": "BENSONS FERRY, CA US"
        },
        {
            "datacoverage": 0.9962,
            "elevation": 563.9,
            "elevationUnit": "METERS",
            "id": "COOP:040678",
            "latitude": 34.16667,
            "longitude": -117.45,
            "maxdate": "1953-03-01",
            "mindate": "1931-01-01",
            "name": "BENNETT RANCH, CA US"
        },
        {
            "datacoverage": 0.9034,
            "elevation": 563.9,
            "elevationUnit": "METERS",
            "id": "GHCND:USC00040678",
            "latitude": 34.16667,
            "longitude": -117.45,
            "maxdate": "1953-04-21",
            "mindate": "1918-01-01",
            "name": "BENNETT RANCH, CA US"
        },
        {
            "datacoverage": 0.5081,
            "elevation": 92.7,
            "elevationUnit": "METERS",
            "id": "GHCND:US1CASO0003",
            "latitude": 38.07528,
            "longitude": -122.177778,
            "maxdate": "2020-05-18",
            "mindate": "2011-01-01",
            "name": "BENICIA 1.3 W, CA US"
        },
        {
            "datacoverage": 0.1916,
            "elevation": 2.7,
            "elevationUnit": "METERS",
            "id": "GHCND:US1CASO0010",
            "latitude": 38.056247,
            "longitude": -122.168771,
            "maxdate": "2020-08-17",
            "mindate": "2016-01-22",
            "name": "BENICIA 1.3 SW, CA US"
        },
        {
            "datacoverage": 0.5346,
            "elevation": 12.2,
            "elevationUnit": "METERS",
            "id": "GHCND:US1CASO0002",
            "latitude": 38.05758611,
            "longitude": -122.1679639,
            "maxdate": "2015-09-13",
            "mindate": "2010-12-01",
            "name": "BENICIA 1.2 SW, CA US"
        },
        {
            "datacoverage": 0.643,
            "elevation": 75,
            "elevationUnit": "METERS",
            "id": "GHCND:US1CASO0006",
            "latitude": 38.086421,
            "longitude": -122.157043,
            "maxdate": "2020-05-30",
            "mindate": "2012-10-01",
            "name": "BENICIA 1.0 N, CA US"
        },
        {
            "datacoverage": 0.7843,
            "elevation": 122.8,
            "elevationUnit": "METERS",
            "id": "GHCND:US1CASO0001",
            "latitude": 38.0695,
            "longitude": -122.1555,
            "maxdate": "2020-08-17",
            "mindate": "2010-02-01",
            "name": "BENICIA 0.2 SSW, CA US"
        },
        {
            "datacoverage": 1,
            "elevation": 305.1,
            "elevationUnit": "METERS",
            "id": "GHCND:USC00040675",
            "latitude": 37.08333,
            "longitude": -122.1,
            "maxdate": "1933-02-28",
            "mindate": "1931-01-01",
            "name": "BEN LOMOND WHITNEY, CA US"
        },
        {
            "datacoverage": 0.9994,
            "elevation": 91.4,
            "elevationUnit": "METERS",
            "id": "GHCND:USC00040672",
            "latitude": 37.083333,
            "longitude": -122.083333,
            "maxdate": "1918-05-31",
            "mindate": "1906-01-01",
            "name": "BEN LOMOND SOUTHERN PACIFIC RAILROAD, CA US"
        },
        {
            "datacoverage": 1,
            "elevation": 128,
            "elevationUnit": "METERS",
            "id": "GHCND:USC00040673",
            "latitude": 37.0855,
            "longitude": -122.0797,
            "maxdate": "2020-09-30",
            "mindate": "1972-12-01",
            "name": "BEN LOMOND NUMBER 4, CA US"
        },
        {
            "datacoverage": 1,
            "elevation": 128,
            "elevationUnit": "METERS",
            "id": "GHCND:USC00040677",
            "latitude": 37.0855,
            "longitude": -122.0797,
            "maxdate": "1972-11-30",
            "mindate": "1967-08-01",
            "name": "BEN LOMOND NUMBER 4, CA US"
        },
        {
            "datacoverage": 0.9923,
            "elevation": 128,
            "elevationUnit": "METERS",
            "id": "COOP:040673",
            "latitude": 37.0855,
            "longitude": -122.0797,
            "maxdate": "2015-11-01",
            "mindate": "1972-12-01",
            "name": "BEN LOMOND NUMBER 4, CA US"
        },
        {
            "datacoverage": 1,
            "elevation": 128,
            "elevationUnit": "METERS",
            "id": "COOP:040676",
            "latitude": 37.0855,
            "longitude": -122.0797,
            "maxdate": "1967-07-01",
            "mindate": "1965-12-01",
            "name": "BEN LOMOND NUMBER 4, CA US"
        },
        {
            "datacoverage": 1,
            "elevation": 128,
            "elevationUnit": "METERS",
            "id": "GHCND:USC00040676",
            "latitude": 37.0855,
            "longitude": -122.0797,
            "maxdate": "1967-07-31",
            "mindate": "1966-01-01",
            "name": "BEN LOMOND NUMBER 4, CA US"
        },
        {
            "datacoverage": 0.9971,
            "elevation": 128,
            "elevationUnit": "METERS",
            "id": "GHCND:USC00040674",
            "latitude": 37.0855,
            "longitude": -122.0797,
            "maxdate": "1965-12-09",
            "mindate": "1937-01-01",
            "name": "BEN LOMOND NUMBER 4, CA US"
        },
        {
            "datacoverage": 1,
            "elevation": 128,
            "elevationUnit": "METERS",
            "id": "COOP:040674",
            "latitude": 37.0855,
            "longitude": -122.0797,
            "maxdate": "1965-12-01",
            "mindate": "1937-02-01",
            "name": "BEN LOMOND NUMBER 4, CA US"
        },
        {
            "datacoverage": 0.9992,
            "elevation": 128,
            "elevationUnit": "METERS",
            "id": "COOP:040677",
            "latitude": 37.0855,
            "longitude": -122.0797,
            "maxdate": "1972-12-01",
            "mindate": "1967-08-01",
            "name": "BEN LOMOND NUMBER 4, CA US"
        },
        {
            "datacoverage": 0.9859,
            "elevation": 801.6,
            "elevationUnit": "METERS",
            "id": "GHCND:USR0000CBNL",
            "latitude": 37.1317,
            "longitude": -122.17,
            "maxdate": "2020-11-23",
            "mindate": "1998-06-01",
            "name": "BEN LOMOND CALIFORNIA, CA US"
        },
        {
            "datacoverage": 0.2333,
            "elevation": 227.7,
            "elevationUnit": "METERS",
            "id": "GHCND:US1CASZ0039",
            "latitude": 37.067999,
            "longitude": -122.067151,
            "maxdate": "2017-02-18",
            "mindate": "2015-09-15",
            "name": "BEN LOMOND 2.6 SSE, CA US"
        },
        {
            "datacoverage": 1,
            "elevation": 121,
            "elevationUnit": "METERS",
            "id": "GHCND:US1CASZ0002",
            "latitude": 37.087749,
            "longitude": -122.07344,
            "maxdate": "2010-02-05",
            "mindate": "2008-09-01",
            "name": "BEN LOMOND 1.2 SSE, CA US"
        },
        {
            "datacoverage": 0.9999,
            "elevation": 275.8,
            "elevationUnit": "METERS",
            "id": "GHCND:USR0000CBLT",
            "latitude": 38.5908,
            "longitude": -120.9336,
            "maxdate": "2020-11-23",
            "mindate": "1990-05-01",
            "name": "BEN BOLT CALIFORNIA, CA US"
        },
        {
            "datacoverage": 1,
            "elevation": 146.9,
            "elevationUnit": "METERS",
            "id": "GHCND:US1CASM0014",
            "latitude": 37.510408,
            "longitude": -122.305704,
            "maxdate": "2014-02-23",
            "mindate": "2011-01-01",
            "name": "BELMONT 0.7 WSW, CA US"
        },
        {
            "datacoverage": 1,
            "elevation": 281,
            "elevationUnit": "METERS",
            "id": "GHCND:USC00040625",
            "latitude": 34.2,
            "longitude": -118.65,
            "maxdate": "1951-08-31",
            "mindate": "1948-07-01",
            "name": "BELL CANYON PLATT RA, CA US"
        },
        {
            "datacoverage": 1,
            "elevation": 281,
            "elevationUnit": "METERS",
            "id": "COOP:040625",
            "latitude": 34.2,
            "longitude": -118.65,
            "maxdate": "1956-08-01",
            "mindate": "1948-01-01",
            "name": "BELL CANYON PLATT RA, CA US"
        },
        {
            "datacoverage": 0.9855,
            "elevation": 213.4,
            "elevationUnit": "METERS",
            "id": "GHCND:USR0000CBCN",
            "latitude": 33.5417,
            "longitude": -117.5917,
            "maxdate": "2020-11-23",
            "mindate": "1993-04-01",
            "name": "BELL CANYON CALIFORNIA, CA US"
        },
        {
            "datacoverage": 0.9871,
            "elevation": 164.9,
            "elevationUnit": "METERS",
            "id": "GHCND:USC00040619",
            "latitude": 34.08333,
            "longitude": -118.45,
            "maxdate": "1980-11-30",
            "mindate": "1948-07-01",
            "name": "BEL AIR FC 10A, CA US"
        },
        {
            "datacoverage": 0.995,
            "elevation": 164.9,
            "elevationUnit": "METERS",
            "id": "COOP:040619",
            "latitude": 34.08333,
            "longitude": -118.45,
            "maxdate": "1984-03-01",
            "mindate": "1931-01-01",
            "name": "BEL AIR FC 10A, CA US"
        },
        {
            "datacoverage": 0.8738,
            "elevation": 392.9,
            "elevationUnit": "METERS",
            "id": "COOP:040615",
            "latitude": 40.35,
            "longitude": -122.86667,
            "maxdate": "1954-12-01",
            "mindate": "1937-11-01",
            "name": "BEEGUM, CA US"
        },
        {
            "datacoverage": 0.4996,
            "elevation": 392.9,
            "elevationUnit": "METERS",
            "id": "GHCND:USC00040615",
            "latitude": 40.35,
            "longitude": -122.86667,
            "maxdate": "1958-07-09",
            "mindate": "1919-10-01",
            "name": "BEEGUM, CA US"
        },
        {
            "datacoverage": 0.9571,
            "elevation": 1511.5,
            "elevationUnit": "METERS",
            "id": "GHCND:US1CAPM0009",
            "latitude": 39.817928,
            "longitude": -120.315792,
            "maxdate": "2020-11-05",
            "mindate": "2017-01-07",
            "name": "BECKWOURTH 3.3 E, CA US"
        },
        {
            "datacoverage": 0.9208,
            "elevation": 1524,
            "elevationUnit": "METERS",
            "id": "GHCND:USR0000CBVR",
            "latitude": 38.4883,
            "longitude": -120.325,
            "maxdate": "2020-11-23",
            "mindate": "1992-02-01",
            "name": "BEAVER CAMP LOC CALIFORNIA, CA US"
        },
        {
            "datacoverage": 0.9733,
            "elevation": 796.4,
            "elevationUnit": "METERS",
            "id": "GHCND:USC00040606",
            "latitude": 33.9291,
            "longitude": -116.975,
            "maxdate": "1971-10-31",
            "mindate": "1906-03-01",
            "name": "BEAUMONT, CA US"
        },
        {
            "datacoverage": 0.9155,
            "elevation": 796.4,
            "elevationUnit": "METERS",
            "id": "COOP:040606",
            "latitude": 33.9291,
            "longitude": -116.975,
            "maxdate": "2006-12-01",
            "mindate": "1888-01-01",
            "name": "BEAUMONT, CA US"
        },
        {
            "datacoverage": 0.9949,
            "elevation": 929.9,
            "elevationUnit": "METERS",
            "id": "GHCND:USC00040607",
            "latitude": 33.98333,
            "longitude": -116.96667,
            "maxdate": "1975-10-31",
            "mindate": "1911-01-01",
            "name": "BEAUMONT PUMP PLANT, CA US"
        },
        {
            "datacoverage": 1,
            "elevation": 929.9,
            "elevationUnit": "METERS",
            "id": "COOP:040607",
            "latitude": 33.98333,
            "longitude": -116.96667,
            "maxdate": "1975-12-01",
            "mindate": "1911-01-01",
            "name": "BEAUMONT PUMP PLANT, CA US"
        },
        {
            "datacoverage": 0.9891,
            "elevation": 789.7,
            "elevationUnit": "METERS",
            "id": "COOP:040609",
            "latitude": 33.9255,
            "longitude": -116.9903,
            "maxdate": "2001-07-01",
            "mindate": "1940-09-01",
            "name": "BEAUMONT NUMBER 2, CA US"
        },
        {
            "datacoverage": 1,
            "elevation": 789.7,
            "elevationUnit": "METERS",
            "id": "GHCND:USW00023156",
            "latitude": 33.9255,
            "longitude": -116.9903,
            "maxdate": "2010-12-31",
            "mindate": "1939-08-01",
            "name": "BEAUMONT NUMBER 2, CA US"
        },
        {
            "datacoverage": 0.9999,
            "elevation": 793.7,
            "elevationUnit": "METERS",
            "id": "GHCND:USR0000CBEU",
            "latitude": 33.9306,
            "longitude": -116.95,
            "maxdate": "2020-11-23",
            "mindate": "2003-08-01",
            "name": "BEAUMONT CALIFORNIA, CA US"
        },
        {
            "datacoverage": 1,
            "elevation": 771.8,
            "elevationUnit": "METERS",
            "id": "GHCND:US1CARV0018",
            "latitude": 33.95425,
            "longitude": -117.01203,
            "maxdate": "2020-11-06",
            "mindate": "2009-02-01",
            "name": "BEAUMONT 2.5 NW, CA US"
        },
        {
            "datacoverage": 0.8228,
            "elevation": 805.9,
            "elevationUnit": "METERS",
            "id": "GHCND:US1CARV0045",
            "latitude": 33.9611968994141,
            "longitude": -116.99178314209,
            "maxdate": "2020-03-10",
            "mindate": "2016-01-31",
            "name": "BEAUMONT 2.2 NNW, CA US"
        },
        {
            "datacoverage": 0.9674,
            "elevation": 780.6,
            "elevationUnit": "METERS",
            "id": "GHCND:US1CARV0065",
            "latitude": 33.91685,
            "longitude": -116.94728,
            "maxdate": "2020-11-05",
            "mindate": "2018-04-01",
            "name": "BEAUMONT 2.1 ESE, CA US"
        },
        {
            "datacoverage": 0.9399,
            "elevation": 778.5,
            "elevationUnit": "METERS",
            "id": "GHCND:US1CARV0061",
            "latitude": 33.95271,
            "longitude": -117.00352,
            "maxdate": "2020-11-06",
            "mindate": "2018-04-01",
            "name": "BEAUMONT 2.0 NW, CA US"
        },
        {
            "datacoverage": 0.666,
            "elevation": 2103.1,
            "elevationUnit": "METERS",
            "id": "COOP:040595",
            "latitude": 38.44056,
            "longitude": -120.07611,
            "maxdate": "2003-10-01",
            "mindate": "2002-08-01",
            "name": "BEAR VALLEY, CA US"
        },
        {
            "datacoverage": 0.7326,
            "elevation": 2103.1,
            "elevationUnit": "METERS",
            "id": "GHCND:USC00040595",
            "latitude": 38.44056,
            "longitude": -120.07611,
            "maxdate": "2003-10-31",
            "mindate": "2002-08-01",
            "name": "BEAR VALLEY, CA US"
        },
        {
            "datacoverage": 0.8543,
            "elevation": 1249.7,
            "elevationUnit": "METERS",
            "id": "GHCND:USC00040503",
            "latitude": 35.1658,
            "longitude": -118.6438,
            "maxdate": "2018-03-31",
            "mindate": "2012-10-01",
            "name": "BEAR VALLEY F.D., CA US"
        },
        {
            "datacoverage": 0.9986,
            "elevation": 1219.2,
            "elevationUnit": "METERS",
            "id": "GHCND:USR0000CBEY",
            "latitude": 35.1397,
            "longitude": -118.625,
            "maxdate": "2009-01-10",
            "mindate": "2002-03-01",
            "name": "BEAR VALLEY CALIFORNIA, CA US"
        },
        {
            "datacoverage": 0.9932,
            "elevation": 2507.9,
            "elevationUnit": "METERS",
            "id": "GHCND:USR0000CBEA",
            "latitude": 35.8842,
            "longitude": -118.0517,
            "maxdate": "2020-11-23",
            "mindate": "1991-10-01",
            "name": "BEAR PEAK CALIFORNIA, CA US"
        },
        {
            "datacoverage": 0.9309,
            "elevation": 1889.8,
            "elevationUnit": "METERS",
            "id": "GHCND:USR0000CBRF",
            "latitude": 41.295,
            "longitude": -120.3133,
            "maxdate": "2020-11-23",
            "mindate": "2003-07-01",
            "name": "BEAR FLAT CALIFORNIA, CA US"
        },
        {
            "datacoverage": 0.95,
            "elevation": 52.7,
            "elevationUnit": "METERS",
            "id": "NEXRAD:KBBX",
            "latitude": 39.49611,
            "longitude": -121.63167,
            "maxdate": "2020-11-22",
            "mindate": "1996-10-22",
            "name": "BEALE AFB, CA US"
        },
        {
            "datacoverage": 1,
            "elevation": 38.1,
            "elevationUnit": "METERS",
            "id": "GHCND:USW00093216",
            "latitude": 39.13333,
            "longitude": -121.43333,
            "maxdate": "1970-12-31",
            "mindate": "1959-01-01",
            "name": "BEALE AFB, CA US"
        },
        {
            "datacoverage": 1,
            "elevation": 38.1,
            "elevationUnit": "METERS",
            "id": "COOP:040584",
            "latitude": 39.13333,
            "longitude": -121.43333,
            "maxdate": "1964-02-01",
            "mindate": "1962-01-01",
            "name": "BEALE AFB, CA US"
        },
        {
            "datacoverage": 0.96,
            "elevation": 38.1,
            "elevationUnit": "METERS",
            "id": "WBAN:93216",
            "latitude": 39.13333,
            "longitude": -121.43333,
            "maxdate": "2020-11-22",
            "mindate": "1959-07-01",
            "name": "BEALE AFB, CA US"
        },
        {
            "datacoverage": 0.9889,
            "elevation": 53.6,
            "elevationUnit": "METERS",
            "id": "GHCND:US1CAHM0016",
            "latitude": 40.7563,
            "longitude": -124.1661,
            "maxdate": "2019-06-20",
            "mindate": "2009-01-01",
            "name": "BAYVIEW 0.8 SE, CA US"
        },
        {
            "datacoverage": 0.9461,
            "elevation": 23.5,
            "elevationUnit": "METERS",
            "id": "GHCND:US1CAHM0002",
            "latitude": 40.8248,
            "longitude": -124.0382,
            "maxdate": "2015-01-18",
            "mindate": "1998-06-01",
            "name": "BAYSIDE 1.8 SE, CA US"
        },
        {
            "datacoverage": 0.0209,
            "elevation": 128,
            "elevationUnit": "METERS",
            "id": "COOP:040546",
            "latitude": 40.3983,
            "longitude": -122.1452,
            "maxdate": "2014-01-01",
            "mindate": "1971-02-01",
            "name": "BATTLE CREEK ADR, CA US"
        },
        {
            "datacoverage": 1,
            "elevation": 963.2,
            "elevationUnit": "METERS",
            "id": "GHCND:USR0000CBAT",
            "latitude": 37.2319,
            "longitude": -119.5083,
            "maxdate": "2020-11-23",
            "mindate": "1999-09-01",
            "name": "BATTERSON CALIFORNIA, CA US"
        },
        {
            "datacoverage": 0.9925,
            "elevation": 1577,
            "elevationUnit": "METERS",
            "id": "COOP:040543",
            "latitude": 34.91667,
            "longitude": -119.91667,
            "maxdate": "1949-09-02",
            "mindate": "1948-07-01",
            "name": "BATES RIDGE, CA US"
        },
        {
            "datacoverage": 0.3355,
            "elevation": 1577,
            "elevationUnit": "METERS",
            "id": "GHCND:USC00040543",
            "latitude": 34.91667,
            "longitude": -119.91667,
            "maxdate": "1949-09-30",
            "mindate": "1948-07-01",
            "name": "BATES RIDGE, CA US"
        },
        {
            "datacoverage": 0.9324,
            "elevation": 1663.3,
            "elevationUnit": "METERS",
            "id": "COOP:040539",
            "latitude": 39.6175,
            "longitude": -120.59222,
            "maxdate": "2003-05-01",
            "mindate": "2002-03-01",
            "name": "BASSETS STATION, CA US"
        },
        {
            "datacoverage": 1,
            "elevation": 1663.3,
            "elevationUnit": "METERS",
            "id": "GHCND:USC00040539",
            "latitude": 39.6175,
            "longitude": -120.59222,
            "maxdate": "2003-05-31",
            "mindate": "2002-01-01",
            "name": "BASSETS STATION, CA US"
        },
        {
            "datacoverage": 0.9998,
            "elevation": 793.1,
            "elevationUnit": "METERS",
            "id": "COOP:040527",
            "latitude": 39.18333,
            "longitude": -122.7,
            "maxdate": "1948-01-01",
            "mindate": "1942-11-01",
            "name": "BARTLETT SPRINGS, CA US"
        },
        {
            "datacoverage": 0.6839,
            "elevation": 659,
            "elevationUnit": "METERS",
            "id": "GHCND:USC00040519",
            "latitude": 34.9,
            "longitude": -117.03333,
            "maxdate": "1980-03-31",
            "mindate": "1903-01-01",
            "name": "BARSTOW, CA US"
        },
        {
            "datacoverage": 0.9768,
            "elevation": 676.7,
            "elevationUnit": "METERS",
            "id": "COOP:040521",
            "latitude": 34.8927,
            "longitude": -117.0219,
            "maxdate": "2015-11-01",
            "mindate": "1980-01-01",
            "name": "BARSTOW, CA US"
        },
        {
            "datacoverage": 1,
            "elevation": 659,
            "elevationUnit": "METERS",
            "id": "COOP:040519",
            "latitude": 34.9,
            "longitude": -117.03333,
            "maxdate": "1979-12-01",
            "mindate": "1939-01-01",
            "name": "BARSTOW, CA US"
        },
        {
            "datacoverage": 1,
            "elevation": 676.7,
            "elevationUnit": "METERS",
            "id": "GHCND:USC00040521",
            "latitude": 34.8927,
            "longitude": -117.0219,
            "maxdate": "2020-11-22",
            "mindate": "1980-05-01",
            "name": "BARSTOW, CA US"
        },
        {
            "datacoverage": 0.9907,
            "elevation": 584.3,
            "elevationUnit": "METERS",
            "id": "COOP:042257",
            "latitude": 34.8536,
            "longitude": -116.7858,
            "maxdate": "2015-11-01",
            "mindate": "1943-12-01",
            "name": "BARSTOW DAGGETT AIRPORT, CA US"
        },
        {
            "datacoverage": 1,
            "elevation": 584.3,
            "elevationUnit": "METERS",
            "id": "GHCND:USW00023161",
            "latitude": 34.8536,
            "longitude": -116.7858,
            "maxdate": "2020-11-22",
            "mindate": "1943-12-01",
            "name": "BARSTOW DAGGETT AIRPORT, CA US"
        },
        {
            "datacoverage": 1,
            "elevation": 584.3,
            "elevationUnit": "METERS",
            "id": "WBAN:23161",
            "latitude": 34.8536,
            "longitude": -116.7858,
            "maxdate": "2020-11-22",
            "mindate": "1948-11-01",
            "name": "BARSTOW DAGGETT AIRPORT, CA US"
        },
        {
            "datacoverage": 0.9075,
            "elevation": 661.4,
            "elevationUnit": "METERS",
            "id": "GHCND:US1CASR0035",
            "latitude": 34.9237,
            "longitude": -117.0177,
            "maxdate": "2020-10-27",
            "mindate": "2012-09-01",
            "name": "BARSTOW 4.2 NE, CA US"
        },
        {
            "datacoverage": 0.9925,
            "elevation": 679.4,
            "elevationUnit": "METERS",
            "id": "GHCND:US1CASR0025",
            "latitude": 34.88,
            "longitude": -117.118,
            "maxdate": "2012-12-27",
            "mindate": "2010-05-01",
            "name": "BARSTOW 3.0 W, CA US"
        },
        {
            "datacoverage": 0.0486,
            "elevation": 795.2,
            "elevationUnit": "METERS",
            "id": "GHCND:US1CASR0023",
            "latitude": 34.86671,
            "longitude": -117.0592,
            "maxdate": "2020-06-26",
            "mindate": "2010-01-22",
            "name": "BARSTOW 0.8 SSE, CA US"
        },
        {
            "datacoverage": 0.9863,
            "elevation": 494.1,
            "elevationUnit": "METERS",
            "id": "GHCND:USC00040514",
            "latitude": 32.68333,
            "longitude": -116.66667,
            "maxdate": "1980-12-31",
            "mindate": "1913-12-01",
            "name": "BARRETT DAM, CA US"
        },
        {
            "datacoverage": 1,
            "elevation": 494.1,
            "elevationUnit": "METERS",
            "id": "COOP:040514",
            "latitude": 32.68333,
            "longitude": -116.66667,
            "maxdate": "1980-12-01",
            "mindate": "1931-01-01",
            "name": "BARRETT DAM, CA US"
        },
        {
            "datacoverage": 0.9526,
            "elevation": 177.1,
            "elevationUnit": "METERS",
            "id": "COOP:040509",
            "latitude": 33.93333,
            "longitude": -117.85,
            "maxdate": "1966-04-01",
            "mindate": "1941-11-01",
            "name": "BARNESON PARK, CA US"
        },
        {
            "datacoverage": 0.8977,
            "elevation": 177.1,
            "elevationUnit": "METERS",
            "id": "GHCND:USC00040509",
            "latitude": 33.93333,
            "longitude": -117.85,
            "maxdate": "1966-03-31",
            "mindate": "1941-11-01",
            "name": "BARNESON PARK, CA US"
        },
        {
            "datacoverage": 0.9742,
            "elevation": 378,
            "elevationUnit": "METERS",
            "id": "GHCND:USR0000CBAR",
            "latitude": 38.0281,
            "longitude": -122.7022,
            "maxdate": "2020-11-23",
            "mindate": "1997-01-01",
            "name": "BARNABY CALIFORNIA, CA US"
        },
        {
            "datacoverage": 0.9997,
            "elevation": 676,
            "elevationUnit": "METERS",
            "id": "COOP:040489",
            "latitude": 33.91667,
            "longitude": -116.86667,
            "maxdate": "1944-10-01",
            "mindate": "1933-06-01",
            "name": "BANNING MUNICIPAL, CA US"
        },
        {
            "datacoverage": 0.9638,
            "elevation": 244.8,
            "elevationUnit": "METERS",
            "id": "GHCND:USR0000CBGR",
            "latitude": 39.3975,
            "longitude": -121.3861,
            "maxdate": "2020-11-23",
            "mindate": "1990-05-01",
            "name": "BANGOR CALIFORNIA, CA US"
        },
        {
            "datacoverage": 0.9991,
            "elevation": 249.9,
            "elevationUnit": "METERS",
            "id": "GHCND:US1CABT0032",
            "latitude": 39.3946380615234,
            "longitude": -121.404663085938,
            "maxdate": "2020-11-06",
            "mindate": "2015-09-27",
            "name": "BANGOR 0.4 N, CA US"
        },
        {
            "datacoverage": 0.9756,
            "elevation": 1426.5,
            "elevationUnit": "METERS",
            "id": "GHCND:USR0000CBAL",
            "latitude": 38.9056,
            "longitude": -120.6972,
            "maxdate": "2020-11-23",
            "mindate": "1989-01-01",
            "name": "BALD MOUNTAIN LOC CALIFORNIA, CA US"
        },
        {
            "datacoverage": 0.9887,
            "elevation": 528.8,
            "elevationUnit": "METERS",
            "id": "COOP:040449",
            "latitude": 36.9092,
            "longitude": -119.0883,
            "maxdate": "2015-11-01",
            "mindate": "1950-02-01",
            "name": "BALCH POWER HOUSE, CA US"
        },
        {
            "datacoverage": 1,
            "elevation": 528.8,
            "elevationUnit": "METERS",
            "id": "GHCND:USC00040449",
            "latitude": 36.9092,
            "longitude": -119.0883,
            "maxdate": "2020-11-22",
            "mindate": "1950-02-01",
            "name": "BALCH POWER HOUSE, CA US"
        },
        {
            "datacoverage": 0.866,
            "elevation": 121.9,
            "elevationUnit": "METERS",
            "id": "GHCND:USC00040439",
            "latitude": 35.38333,
            "longitude": -119.01667,
            "maxdate": "1937-09-30",
            "mindate": "1893-01-01",
            "name": "BAKERSFIELD, CA US"
        },
        {
            "datacoverage": 1,
            "elevation": 121.9,
            "elevationUnit": "METERS",
            "id": "COOP:040439",
            "latitude": 35.38333,
            "longitude": -119.01667,
            "maxdate": "1937-09-01",
            "mindate": "1931-01-01",
            "name": "BAKERSFIELD, CA US"
        },
        {
            "datacoverage": 0.9968,
            "elevation": 149,
            "elevationUnit": "METERS",
            "id": "COOP:040442",
            "latitude": 35.4344,
            "longitude": -119.0542,
            "maxdate": "2015-11-01",
            "mindate": "1938-01-01",
            "name": "BAKERSFIELD AIRPORT, CA US"
        },
        {
            "datacoverage": 1,
            "elevation": 149,
            "elevationUnit": "METERS",
            "id": "GHCND:USW00023155",
            "latitude": 35.4344,
            "longitude": -119.0542,
            "maxdate": "2020-11-22",
            "mindate": "1937-10-01",
            "name": "BAKERSFIELD AIRPORT, CA US"
        },
        {
            "datacoverage": 1,
            "elevation": 149,
            "elevationUnit": "METERS",
            "id": "WBAN:23155",
            "latitude": 35.4344,
            "longitude": -119.0542,
            "maxdate": "2020-11-22",
            "mindate": "1941-10-01",
            "name": "BAKERSFIELD AIRPORT, CA US"
        },
        {
            "datacoverage": 0.9996,
            "elevation": 112.8,
            "elevationUnit": "METERS",
            "id": "GHCND:US1CAKN0022",
            "latitude": 35.331142,
            "longitude": -119.107783,
            "maxdate": "2020-10-16",
            "mindate": "2015-10-01",
            "name": "BAKERSFIELD 6.1 WSW, CA US"
        },
        {
            "datacoverage": 1,
            "elevation": 143.3,
            "elevationUnit": "METERS",
            "id": "GHCND:USC00040444",
            "latitude": 35.4186,
            "longitude": -119.0508,
            "maxdate": "2020-11-23",
            "mindate": "1999-01-01",
            "name": "BAKERSFIELD 5 NW, CA US"
        },
        {
            "datacoverage": 0.9854,
            "elevation": 143.3,
            "elevationUnit": "METERS",
            "id": "COOP:040444",
            "latitude": 35.4186,
            "longitude": -119.0508,
            "maxdate": "2015-11-01",
            "mindate": "1999-01-01",
            "name": "BAKERSFIELD 5 NW, CA US"
        },
        {
            "datacoverage": 0.8292,
            "elevation": 293.2,
            "elevationUnit": "METERS",
            "id": "COOP:040436",
            "latitude": 35.27611,
            "longitude": -116.06278,
            "maxdate": "2012-12-01",
            "mindate": "1953-11-01",
            "name": "BAKER, CA US"
        },
        {
            "datacoverage": 1,
            "elevation": 293.2,
            "elevationUnit": "METERS",
            "id": "GHCND:USC00040436",
            "latitude": 35.27611,
            "longitude": -116.06278,
            "maxdate": "2013-08-31",
            "mindate": "1971-12-01",
            "name": "BAKER, CA US"
        },
        {
            "datacoverage": 0.9994,
            "elevation": 213.4,
            "elevationUnit": "METERS",
            "id": "GHCND:USR0000CBKR",
            "latitude": 40.2789,
            "longitude": -122.4869,
            "maxdate": "1997-12-15",
            "mindate": "1990-05-01",
            "name": "BAKER CALIFORNIA, CA US"
        },
        {
            "datacoverage": 0.9859,
            "elevation": 320,
            "elevationUnit": "METERS",
            "id": "COOP:040437",
            "latitude": 35.38333,
            "longitude": -116.11667,
            "maxdate": "1971-03-01",
            "mindate": "1953-11-01",
            "name": "BAKER 9 NNW, CA US"
        },
        {
            "datacoverage": 1,
            "elevation": 320,
            "elevationUnit": "METERS",
            "id": "GHCND:USC00040437",
            "latitude": 35.38333,
            "longitude": -116.11667,
            "maxdate": "1971-03-31",
            "mindate": "1953-11-01",
            "name": "BAKER 9 NNW, CA US"
        },
        {
            "datacoverage": 0.956,
            "elevation": 932.7,
            "elevationUnit": "METERS",
            "id": "COOP:040422",
            "latitude": 36.62861,
            "longitude": -119.01167,
            "maxdate": "2006-12-01",
            "mindate": "1948-01-01",
            "name": "BADGER, CA US"
        },
        {
            "datacoverage": 0.9744,
            "elevation": 932.7,
            "elevationUnit": "METERS",
            "id": "GHCND:USC00040422",
            "latitude": 36.62861,
            "longitude": -119.01167,
            "maxdate": "1951-09-30",
            "mindate": "1948-07-01",
            "name": "BADGER, CA US"
        },
        {
            "datacoverage": 0.9721,
            "elevation": 808,
            "elevationUnit": "METERS",
            "id": "GHCND:USC00040418",
            "latitude": 34.95,
            "longitude": -118.18333,
            "maxdate": "1963-02-28",
            "mindate": "1936-06-01",
            "name": "BACKUS RANCH, CA US"
        },
        {
            "datacoverage": 1,
            "elevation": 808,
            "elevationUnit": "METERS",
            "id": "COOP:040418",
            "latitude": 34.95,
            "longitude": -118.18333,
            "maxdate": "1962-12-01",
            "mindate": "1936-06-01",
            "name": "BACKUS RANCH, CA US"
        },
        {
            "datacoverage": 0.9463,
            "elevation": 1432.6,
            "elevationUnit": "METERS",
            "id": "GHCND:USR0000CBAC",
            "latitude": 40.8892,
            "longitude": -123.1422,
            "maxdate": "2020-11-23",
            "mindate": "2000-10-01",
            "name": "BACKBONE CALIFORNIA, CA US"
        },
        {
            "datacoverage": 0.5911,
            "elevation": 185.9,
            "elevationUnit": "METERS",
            "id": "GHCND:USC00040410",
            "latitude": 34.13333,
            "longitude": -117.9,
            "maxdate": "1972-10-31",
            "mindate": "1901-12-01",
            "name": "AZUSA CITY PK FC 143, CA US"
        },
        {
            "datacoverage": 1,
            "elevation": 185.9,
            "elevationUnit": "METERS",
            "id": "COOP:040410",
            "latitude": 34.13333,
            "longitude": -117.9,
            "maxdate": "1972-10-01",
            "mindate": "1931-01-01",
            "name": "AZUSA CITY PK FC 143, CA US"
        },
        {
            "datacoverage": 1,
            "elevation": 9.1,
            "elevationUnit": "METERS",
            "id": "COOP:040403",
            "latitude": 35.1784,
            "longitude": -120.73363,
            "maxdate": "1971-04-01",
            "mindate": "1963-06-01",
            "name": "AVILA BEACH, CA US"
        },
        {
            "datacoverage": 0.9897,
            "elevation": 9.1,
            "elevationUnit": "METERS",
            "id": "GHCND:USC00040403",
            "latitude": 35.1784,
            "longitude": -120.73363,
            "maxdate": "1971-04-20",
            "mindate": "1963-06-01",
            "name": "AVILA BEACH, CA US"
        },
        {
            "datacoverage": 1,
            "elevation": 159.1,
            "elevationUnit": "METERS",
            "id": "COOP:040398",
            "latitude": 35.9,
            "longitude": -120.05,
            "maxdate": "1961-07-01",
            "mindate": "1955-02-01",
            "name": "AVENAL 9 SSE, CA US"
        },
        {
            "datacoverage": 0.9876,
            "elevation": 159.1,
            "elevationUnit": "METERS",
            "id": "GHCND:USC00040398",
            "latitude": 35.9,
            "longitude": -120.05,
            "maxdate": "1961-07-31",
            "mindate": "1955-02-01",
            "name": "AVENAL 9 SSE, CA US"
        },
        {
            "datacoverage": 0.9842,
            "elevation": 7.6,
            "elevationUnit": "METERS",
            "id": "COOP:040395",
            "latitude": 33.35,
            "longitude": -118.31667,
            "maxdate": "1988-12-01",
            "mindate": "1931-01-01",
            "name": "AVALON PLEASURE PIER, CA US"
        },
        {
            "datacoverage": 0.9379,
            "elevation": 7.6,
            "elevationUnit": "METERS",
            "id": "GHCND:USC00040395",
            "latitude": 33.35,
            "longitude": -118.31667,
            "maxdate": "1988-12-31",
            "mindate": "1909-01-01",
            "name": "AVALON PLEASURE PIER, CA US"
        },
        {
            "datacoverage": 1,
            "elevation": 27.4,
            "elevationUnit": "METERS",
            "id": "COOP:040392",
            "latitude": 33.338,
            "longitude": -118.3305,
            "maxdate": "2011-12-01",
            "mindate": "2011-01-01",
            "name": "AVALON INLAND, CA US"
        },
        {
            "datacoverage": 0.42,
            "elevation": 488.3,
            "elevationUnit": "METERS",
            "id": "WBAN:23191",
            "latitude": 33.405,
            "longitude": -118.41583,
            "maxdate": "2020-11-22",
            "mindate": "1943-06-12",
            "name": "AVALON CATALINA AIRPORT, CA US"
        },
        {
            "datacoverage": 1,
            "elevation": 488.3,
            "elevationUnit": "METERS",
            "id": "GHCND:USW00023191",
            "latitude": 33.405,
            "longitude": -118.41583,
            "maxdate": "2020-11-22",
            "mindate": "1948-01-01",
            "name": "AVALON CATALINA AIRPORT, CA US"
        },
        {
            "datacoverage": 0.5924,
            "elevation": 488.3,
            "elevationUnit": "METERS",
            "id": "COOP:047910",
            "latitude": 33.405,
            "longitude": -118.41583,
            "maxdate": "1968-02-01",
            "mindate": "1942-01-01",
            "name": "AVALON CATALINA AIRPORT, CA US"
        },
        {
            "datacoverage": 0.9916,
            "elevation": 393.8,
            "elevationUnit": "METERS",
            "id": "COOP:040383",
            "latitude": 38.9072,
            "longitude": -121.0838,
            "maxdate": "2015-11-01",
            "mindate": "1916-11-01",
            "name": "AUBURN, CA US"
        },
        {
            "datacoverage": 1,
            "elevation": 393.8,
            "elevationUnit": "METERS",
            "id": "GHCND:USC00040383",
            "latitude": 38.9072,
            "longitude": -121.0838,
            "maxdate": "2020-11-23",
            "mindate": "1905-01-01",
            "name": "AUBURN, CA US"
        },
        {
            "datacoverage": 1,
            "elevation": 466.6,
            "elevationUnit": "METERS",
            "id": "WBAN:23224",
            "latitude": 38.95472,
            "longitude": -121.08194,
            "maxdate": "2020-11-22",
            "mindate": "2005-01-01",
            "name": "AUBURN MUNICIPAL AIRPORT, CA US"
        },
        {
            "datacoverage": 1,
            "elevation": 466.6,
            "elevationUnit": "METERS",
            "id": "COOP:040389",
            "latitude": 38.95472,
            "longitude": -121.08194,
            "maxdate": "1948-04-01",
            "mindate": "1943-01-01",
            "name": "AUBURN MUNICIPAL AIRPORT, CA US"
        },
        {
            "datacoverage": 0.9998,
            "elevation": 387.1,
            "elevationUnit": "METERS",
            "id": "COOP:040385",
            "latitude": 38.88333,
            "longitude": -121.06667,
            "maxdate": "1984-09-01",
            "mindate": "1972-07-01",
            "name": "AUBURN DAM PROJECT, CA US"
        },
        {
            "datacoverage": 0.9998,
            "elevation": 387.1,
            "elevationUnit": "METERS",
            "id": "GHCND:USC00040385",
            "latitude": 38.88333,
            "longitude": -121.06667,
            "maxdate": "1984-09-30",
            "mindate": "1972-07-01",
            "name": "AUBURN DAM PROJECT, CA US"
        },
        {
            "datacoverage": 1,
            "elevation": 376.7,
            "elevationUnit": "METERS",
            "id": "GHCND:US1CAPC0032",
            "latitude": 38.962879,
            "longitude": -121.115345,
            "maxdate": "2020-08-25",
            "mindate": "2014-11-01",
            "name": "AUBURN 5.3 NNW, CA US"
        },
        {
            "datacoverage": 0.3556,
            "elevation": 440.4,
            "elevationUnit": "METERS",
            "id": "GHCND:US1CAPC0037",
            "latitude": 38.960199,
            "longitude": -121.092338,
            "maxdate": "2020-11-05",
            "mindate": "2016-01-23",
            "name": "AUBURN 4.8 N, CA US"
        },
        {
            "datacoverage": 0.9355,
            "elevation": 465.7,
            "elevationUnit": "METERS",
            "id": "GHCND:US1CAPC0012",
            "latitude": 38.936224,
            "longitude": -121.067921,
            "maxdate": "2012-11-09",
            "mindate": "2009-02-01",
            "name": "AUBURN 3.1 N, CA US"
        },
        {
            "datacoverage": 0.9863,
            "elevation": 637,
            "elevationUnit": "METERS",
            "id": "COOP:040379",
            "latitude": 37.0919,
            "longitude": -119.5128,
            "maxdate": "2015-11-01",
            "mindate": "1931-01-01",
            "name": "AUBERRY 2 NW, CA US"
        },
        {
            "datacoverage": 1,
            "elevation": 637,
            "elevationUnit": "METERS",
            "id": "GHCND:USC00040379",
            "latitude": 37.0919,
            "longitude": -119.5128,
            "maxdate": "2019-08-31",
            "mindate": "1915-01-01",
            "name": "AUBERRY 2 NW, CA US"
        },
        {
            "datacoverage": 0.9961,
            "elevation": 609.6,
            "elevationUnit": "METERS",
            "id": "GHCND:US1CAFR0028",
            "latitude": 37.070191,
            "longitude": -119.510299,
            "maxdate": "2018-02-27",
            "mindate": "2016-10-30",
            "name": "AUBERRY 1.1 WSW, CA US"
        },
        {
            "datacoverage": 0.9781,
            "elevation": 512.1,
            "elevationUnit": "METERS",
            "id": "GHCND:USC00040372",
            "latitude": 38.42694,
            "longitude": -122.24833,
            "maxdate": "2016-03-01",
            "mindate": "1948-07-01",
            "name": "ATLAS ROAD BROWN, CA US"
        },
        {
            "datacoverage": 1,
            "elevation": 512.1,
            "elevationUnit": "METERS",
            "id": "COOP:040372",
            "latitude": 38.42694,
            "longitude": -122.24833,
            "maxdate": "1969-04-24",
            "mindate": "1948-01-01",
            "name": "ATLAS ROAD BROWN, CA US"
        },
        {
            "datacoverage": 0.0233,
            "elevation": 512.1,
            "elevationUnit": "METERS",
            "id": "COOP:040368",
            "latitude": 38.42694,
            "longitude": -122.24833,
            "maxdate": "1998-08-04",
            "mindate": "1968-12-01",
            "name": "ATLAS ROAD BROWN, CA US"
        },
        {
            "datacoverage": 0.674,
            "elevation": 427.6,
            "elevationUnit": "METERS",
            "id": "GHCND:US1CASL0010",
            "latitude": 35.5033531188965,
            "longitude": -120.737602233887,
            "maxdate": "2020-08-14",
            "mindate": "2012-06-01",
            "name": "ATASCADERO 3.1 WNW, CA US"
        },
        {
            "datacoverage": 1,
            "elevation": 103.9,
            "elevationUnit": "METERS",
            "id": "COOP:040355",
            "latitude": 33.9,
            "longitude": -117.88333,
            "maxdate": "1966-05-01",
            "mindate": "1941-11-01",
            "name": "ASSOC OIL ANAHEIM 1, CA US"
        },
        {
            "datacoverage": 0.3648,
            "elevation": 103.9,
            "elevationUnit": "METERS",
            "id": "GHCND:USC00040355",
            "latitude": 33.9,
            "longitude": -117.88333,
            "maxdate": "1966-05-31",
            "mindate": "1906-04-06",
            "name": "ASSOC OIL ANAHEIM 1, CA US"
        },
        {
            "datacoverage": 0.7978,
            "elevation": 2581.7,
            "elevationUnit": "METERS",
            "id": "GHCND:USC00040820",
            "latitude": 37.2321,
            "longitude": -118.5994,
            "maxdate": "2020-10-21",
            "mindate": "2003-05-01",
            "name": "ASPENDELL, CA US"
        },
        {
            "datacoverage": 0.2078,
            "elevation": 2581.7,
            "elevationUnit": "METERS",
            "id": "COOP:040820",
            "latitude": 37.2321,
            "longitude": -118.5994,
            "maxdate": "2011-12-01",
            "mindate": "1931-01-01",
            "name": "ASPENDELL, CA US"
        },
        {
            "datacoverage": 1,
            "elevation": 1554.5,
            "elevationUnit": "METERS",
            "id": "GHCND:USR0000CASH",
            "latitude": 41.0519,
            "longitude": -120.6861,
            "maxdate": "2014-02-20",
            "mindate": "1991-10-01",
            "name": "ASH VALLEY CALIFORNIA, CA US"
        },
        {
            "datacoverage": 0.9941,
            "elevation": 520.6,
            "elevationUnit": "METERS",
            "id": "COOP:040343",
            "latitude": 36.4914,
            "longitude": -118.8253,
            "maxdate": "2015-11-01",
            "mindate": "1931-01-01",
            "name": "ASH MOUNTAIN, CA US"
        },
        {
            "datacoverage": 1,
            "elevation": 520.6,
            "elevationUnit": "METERS",
            "id": "GHCND:USC00040343",
            "latitude": 36.4914,
            "longitude": -118.8253,
            "maxdate": "2020-02-29",
            "mindate": "1927-01-01",
            "name": "ASH MOUNTAIN, CA US"
        },
        {
            "datacoverage": 0.9117,
            "elevation": 975.4,
            "elevationUnit": "METERS",
            "id": "GHCND:USR0000CASC",
            "latitude": 41.2769,
            "longitude": -121.9794,
            "maxdate": "2020-11-23",
            "mindate": "1989-11-01",
            "name": "ASH CREEK CALIFORNIA, CA US"
        },
        {
            "datacoverage": 0.9888,
            "elevation": 137.2,
            "elevationUnit": "METERS",
            "id": "COOP:040332",
            "latitude": 35.2111,
            "longitude": -118.8336,
            "maxdate": "2015-11-01",
            "mindate": "2008-08-01",
            "name": "ARVIN, CA US"
        },
        {
            "datacoverage": 1,
            "elevation": 137.2,
            "elevationUnit": "METERS",
            "id": "GHCND:USC00040332",
            "latitude": 35.2111,
            "longitude": -118.8336,
            "maxdate": "2020-11-14",
            "mindate": "2008-08-01",
            "name": "ARVIN, CA US"
        },
        {
            "datacoverage": 0.9469,
            "elevation": 18,
            "elevationUnit": "METERS",
            "id": "GHCND:US1CALA0068",
            "latitude": 33.8675,
            "longitude": -118.089,
            "maxdate": "2020-11-06",
            "mindate": "2016-04-26",
            "name": "ARTESIA 0.5 W, CA US"
        },
        {
            "datacoverage": 0.8161,
            "elevation": 286.5,
            "elevationUnit": "METERS",
            "id": "GHCND:USC00040322",
            "latitude": 36.2355,
            "longitude": -121.48,
            "maxdate": "1954-05-31",
            "mindate": "1915-01-01",
            "name": "ARROYO SECO, CA US"
        },
        {
            "datacoverage": 0.6869,
            "elevation": 286.5,
            "elevationUnit": "METERS",
            "id": "COOP:040322",
            "latitude": 36.2355,
            "longitude": -121.48,
            "maxdate": "2014-01-01",
            "mindate": "1931-01-01",
            "name": "ARROYO SECO, CA US"
        },
        {
            "datacoverage": 0.9755,
            "elevation": 371.9,
            "elevationUnit": "METERS",
            "id": "GHCND:USC00040327",
            "latitude": 34.21667,
            "longitude": -118.16667,
            "maxdate": "1974-04-30",
            "mindate": "1916-10-01",
            "name": "ARROYO SECO RANGER STATION FC508, CA US"
        },
        {
            "datacoverage": 0.9962,
            "elevation": 371.9,
            "elevationUnit": "METERS",
            "id": "COOP:040327",
            "latitude": 34.21667,
            "longitude": -118.16667,
            "maxdate": "1974-06-01",
            "mindate": "1931-01-01",
            "name": "ARROYO SECO RANGER STATION FC508, CA US"
        },
        {
            "datacoverage": 0.9999,
            "elevation": 298.7,
            "elevationUnit": "METERS",
            "id": "GHCND:USR0000CARR",
            "latitude": 36.23,
            "longitude": -121.4917,
            "maxdate": "2020-11-23",
            "mindate": "1996-05-01",
            "name": "ARROYO SECO MT. DIABLO CALIF, CA US"
        },
        {
            "datacoverage": 1,
            "elevation": 214,
            "elevationUnit": "METERS",
            "id": "COOP:040325",
            "latitude": 36.25,
            "longitude": -121.41667,
            "maxdate": "1952-02-01",
            "mindate": "1949-02-01",
            "name": "ARROYO SECO MILLERS, CA US"
        },
        {
            "datacoverage": 1,
            "elevation": 214,
            "elevationUnit": "METERS",
            "id": "GHCND:USC00040325",
            "latitude": 36.25,
            "longitude": -121.41667,
            "maxdate": "1952-02-29",
            "mindate": "1949-01-01",
            "name": "ARROYO SECO MILLERS, CA US"
        },
        {
            "datacoverage": 0.9859,
            "elevation": 34.1,
            "elevationUnit": "METERS",
            "id": "GHCND:USC00040320",
            "latitude": 35.11667,
            "longitude": -120.56667,
            "maxdate": "1977-05-31",
            "mindate": "1959-08-01",
            "name": "ARROYO GRANDE, CA US"
        },
        {
            "datacoverage": 0.9861,
            "elevation": 34.1,
            "elevationUnit": "METERS",
            "id": "COOP:040320",
            "latitude": 35.11667,
            "longitude": -120.56667,
            "maxdate": "1977-06-01",
            "mindate": "1959-08-01",
            "name": "ARROYO GRANDE, CA US"
        },
        {
            "datacoverage": 0.905,
            "elevation": 319.4,
            "elevationUnit": "METERS",
            "id": "GHCND:USR0000CAGD",
            "latitude": 35.1792,
            "longitude": -120.3919,
            "maxdate": "2019-02-12",
            "mindate": "1997-02-01",
            "name": "ARROYO GRANDE CALIFORNIA, CA US"
        },
        {
            "datacoverage": 0.9147,
            "elevation": 149.7,
            "elevationUnit": "METERS",
            "id": "GHCND:US1CASL0022",
            "latitude": 35.1550140380859,
            "longitude": -120.610313415527,
            "maxdate": "2017-01-04",
            "mindate": "2016-04-22",
            "name": "ARROYO GRANDE 2.5 NW, CA US"
        },
        {
            "datacoverage": 0.0162,
            "elevation": 282.5,
            "elevationUnit": "METERS",
            "id": "COOP:040321",
            "latitude": 35.1844,
            "longitude": -120.398,
            "maxdate": "2014-01-01",
            "mindate": "1993-12-01",
            "name": "ARROYO GRANDE 11 ENE, CA US"
        },
        {
            "datacoverage": 0.9174,
            "elevation": 104.9,
            "elevationUnit": "METERS",
            "id": "GHCND:US1CAMT0017",
            "latitude": 36.85,
            "longitude": -121.65,
            "maxdate": "2020-01-26",
            "mindate": "2009-03-01",
            "name": "AROMAS 2.0 SSW, CA US"
        },
        {
            "datacoverage": 0.7028,
            "elevation": 1230.2,
            "elevationUnit": "METERS",
            "id": "GHCND:US1CACV0006",
            "latitude": 38.2423,
            "longitude": -120.3118,
            "maxdate": "2018-11-30",
            "mindate": "2015-10-29",
            "name": "ARNOLD 3.2 ENE, CA US"
        },
        {
            "datacoverage": 1,
            "elevation": 61,
            "elevationUnit": "METERS",
            "id": "GHCND:USW00024245",
            "latitude": 40.97806,
            "longitude": -124.10861,
            "maxdate": "1946-04-28",
            "mindate": "1945-01-01",
            "name": "ARCATA EUREKA AIRPORT, CA US"
        },
        {
            "datacoverage": 1,
            "elevation": 61,
            "elevationUnit": "METERS",
            "id": "WBAN:24283",
            "latitude": 40.97806,
            "longitude": -124.10861,
            "maxdate": "2020-11-22",
            "mindate": "1949-12-01",
            "name": "ARCATA EUREKA AIRPORT, CA US"
        },
        {
            "datacoverage": 1,
            "elevation": 61,
            "elevationUnit": "METERS",
            "id": "GHCND:USW00024283",
            "latitude": 40.97806,
            "longitude": -124.10861,
            "maxdate": "2020-11-22",
            "mindate": "1992-01-01",
            "name": "ARCATA EUREKA AIRPORT, CA US"
        },
        {
            "datacoverage": 0.3485,
            "elevation": 9.8,
            "elevationUnit": "METERS",
            "id": "GHCND:US1CAHM0033",
            "latitude": 40.895945,
            "longitude": -124.095084,
            "maxdate": "2017-02-05",
            "mindate": "2010-10-01",
            "name": "ARCATA 2.1 NNW, CA US"
        },
        {
            "datacoverage": 0.9992,
            "elevation": 64,
            "elevationUnit": "METERS",
            "id": "GHCND:US1CAHM0054",
            "latitude": 40.850631,
            "longitude": -124.051697,
            "maxdate": "2020-10-12",
            "mindate": "2014-12-01",
            "name": "ARCATA 1.9 SE, CA US"
        },
        {
            "datacoverage": 0.9999,
            "elevation": 88.1,
            "elevationUnit": "METERS",
            "id": "GHCND:US1CAHM0021",
            "latitude": 40.887251,
            "longitude": -124.07244,
            "maxdate": "2017-03-25",
            "mindate": "2009-06-01",
            "name": "ARCATA 1.4 NNE, CA US"
        },
        {
            "datacoverage": 0.999,
            "elevation": 5.2,
            "elevationUnit": "METERS",
            "id": "GHCND:US1CAHM0019",
            "latitude": 40.876784,
            "longitude": -124.097287,
            "maxdate": "2011-08-05",
            "mindate": "2009-03-01",
            "name": "ARCATA 1.1 NW, CA US"
        },
        {
            "datacoverage": 0.989,
            "elevation": 128,
            "elevationUnit": "METERS",
            "id": "GHCND:US1CAHM0001",
            "latitude": 40.880915,
            "longitude": -124.06924,
            "maxdate": "2020-11-02",
            "mindate": "2008-10-01",
            "name": "ARCATA 1.1 NE, CA US"
        },
        {
            "datacoverage": 0.6918,
            "elevation": 4.6,
            "elevationUnit": "METERS",
            "id": "GHCND:US1CAHM0025",
            "latitude": 40.875693,
            "longitude": -124.096421,
            "maxdate": "2012-12-19",
            "mindate": "2009-10-01",
            "name": "ARCATA 1.0 NW, CA US"
        },
        {
            "datacoverage": 1,
            "elevation": 4.6,
            "elevationUnit": "METERS",
            "id": "GHCND:US1CAHM0063",
            "latitude": 40.872397,
            "longitude": -124.097259,
            "maxdate": "2020-11-05",
            "mindate": "2015-10-01",
            "name": "ARCATA 0.9 WNW, CA US"
        },
        {
            "datacoverage": 0.9448,
            "elevation": 198.7,
            "elevationUnit": "METERS",
            "id": "GHCND:US1CALA0021",
            "latitude": 34.161742,
            "longitude": -118.028495,
            "maxdate": "2020-10-25",
            "mindate": "2010-03-01",
            "name": "ARCADIA 2.1 NNE, CA US"
        },
        {
            "datacoverage": 0.9922,
            "elevation": 579.1,
            "elevationUnit": "METERS",
            "id": "GHCND:USR0000CABS",
            "latitude": 40.3983,
            "longitude": -122.8333,
            "maxdate": "2020-11-23",
            "mindate": "1995-01-01",
            "name": "ARBUCKLE BASIN CALIFORNIA, CA US"
        },
        {
            "datacoverage": 1,
            "elevation": 116.7,
            "elevationUnit": "METERS",
            "id": "GHCND:US1CASZ0009",
            "latitude": 36.9961,
            "longitude": -121.8536,
            "maxdate": "2016-10-17",
            "mindate": "2009-02-01",
            "name": "APTOS 2.6 E, CA US"
        },
        {
            "datacoverage": 0.6368,
            "elevation": 94.2,
            "elevationUnit": "METERS",
            "id": "GHCND:US1CASZ0019",
            "latitude": 36.970725,
            "longitude": -121.883193,
            "maxdate": "2014-05-09",
            "mindate": "2009-11-01",
            "name": "APTOS 1.7 SSE, CA US"
        },
        {
            "datacoverage": 0.1094,
            "elevation": 183.2,
            "elevationUnit": "METERS",
            "id": "GHCND:US1CASZ0031",
            "latitude": 37.01237,
            "longitude": -121.90081,
            "maxdate": "2020-08-16",
            "mindate": "2013-11-13",
            "name": "APTOS 1.4 N, CA US"
        },
        {
            "datacoverage": 0.9819,
            "elevation": 68.6,
            "elevationUnit": "METERS",
            "id": "GHCND:US1CASZ0045",
            "latitude": 36.9857215881348,
            "longitude": -121.900894165039,
            "maxdate": "2020-04-11",
            "mindate": "1998-06-17",
            "name": "APTOS 0.4 S, CA US"
        },
        {
            "datacoverage": 0.9723,
            "elevation": 604.4,
            "elevationUnit": "METERS",
            "id": "GHCND:US1CAPC0024",
            "latitude": 38.996224,
            "longitude": -120.985965,
            "maxdate": "2020-11-05",
            "mindate": "2013-03-01",
            "name": "APPLEGATE 0.5 SE, CA US"
        },
        {
            "datacoverage": 0.988,
            "elevation": 894.6,
            "elevationUnit": "METERS",
            "id": "GHCND:USC00040244",
            "latitude": 34.51667,
            "longitude": -117.21667,
            "maxdate": "1987-03-31",
            "mindate": "1959-06-01",
            "name": "APPLE VALLEY, CA US"
        },
        {
            "datacoverage": 0.997,
            "elevation": 894.6,
            "elevationUnit": "METERS",
            "id": "COOP:040244",
            "latitude": 34.51667,
            "longitude": -117.21667,
            "maxdate": "1987-03-01",
            "mindate": "1959-06-01",
            "name": "APPLE VALLEY, CA US"
        },
        {
            "datacoverage": 0.6653,
            "elevation": 950.7,
            "elevationUnit": "METERS",
            "id": "GHCND:US1CASR0066",
            "latitude": 34.5588,
            "longitude": -117.15157,
            "maxdate": "2020-11-06",
            "mindate": "2018-04-25",
            "name": "APPLE VALLEY 4.1 ENE, CA US"
        },
        {
            "datacoverage": 1,
            "elevation": 878.1,
            "elevationUnit": "METERS",
            "id": "GHCND:US1CASR0001",
            "latitude": 34.4957,
            "longitude": -117.2353,
            "maxdate": "2012-09-30",
            "mindate": "2008-10-01",
            "name": "APPLE VALLEY 2.6 SSW, CA US"
        },
        {
            "datacoverage": 0.9995,
            "elevation": 896.4,
            "elevationUnit": "METERS",
            "id": "GHCND:US1CASR0009",
            "latitude": 34.50431,
            "longitude": -117.18082,
            "maxdate": "2020-04-11",
            "mindate": "2008-11-01",
            "name": "APPLE VALLEY 2.6 SE, CA US"
        },
        {
            "datacoverage": 0.8333,
            "elevation": 894.6,
            "elevationUnit": "METERS",
            "id": "GHCND:US1CASR0028",
            "latitude": 34.556008,
            "longitude": -117.211055,
            "maxdate": "2016-10-31",
            "mindate": "2010-10-01",
            "name": "APPLE VALLEY 1.9 N, CA US"
        },
        {
            "datacoverage": 0.9783,
            "elevation": 1516.1,
            "elevationUnit": "METERS",
            "id": "COOP:040239",
            "latitude": 34.86667,
            "longitude": -119.33333,
            "maxdate": "1971-12-01",
            "mindate": "1948-01-01",
            "name": "APACHE CAMP, CA US"
        },
        {
            "datacoverage": 1,
            "elevation": 1516.1,
            "elevationUnit": "METERS",
            "id": "GHCND:USC00040239",
            "latitude": 34.86667,
            "longitude": -119.33333,
            "maxdate": "1951-09-30",
            "mindate": "1948-07-01",
            "name": "APACHE CAMP, CA US"
        },
        {
            "datacoverage": 1,
            "elevation": 1193.3,
            "elevationUnit": "METERS",
            "id": "GHCND:USC00040235",
            "latitude": 33.5558,
            "longitude": -116.6738,
            "maxdate": "2010-12-31",
            "mindate": "1943-09-01",
            "name": "ANZA, CA US"
        },
        {
            "datacoverage": 0.9373,
            "elevation": 1193.3,
            "elevationUnit": "METERS",
            "id": "COOP:040235",
            "latitude": 33.5558,
            "longitude": -116.6738,
            "maxdate": "2005-02-01",
            "mindate": "1942-10-01",
            "name": "ANZA, CA US"
        },
        {
            "datacoverage": 1,
            "elevation": 1194.8,
            "elevationUnit": "METERS",
            "id": "GHCND:USR0000CANZ",
            "latitude": 33.555,
            "longitude": -116.673,
            "maxdate": "2020-11-23",
            "mindate": "1995-01-01",
            "name": "ANZA CALIFORNIA, CA US"
        },
        {
            "datacoverage": 1,
            "elevation": 18.3,
            "elevationUnit": "METERS",
            "id": "GHCND:USC00040232",
            "latitude": 37.9833,
            "longitude": -121.7525,
            "maxdate": "2020-09-30",
            "mindate": "1955-03-01",
            "name": "ANTIOCH PUMPING PLANT NUMBER 3, CA US"
        },
        {
            "datacoverage": 0.9643,
            "elevation": 18.3,
            "elevationUnit": "METERS",
            "id": "COOP:040232",
            "latitude": 37.9833,
            "longitude": -121.7525,
            "maxdate": "2015-11-01",
            "mindate": "1955-03-01",
            "name": "ANTIOCH PUMPING PLANT NUMBER 3, CA US"
        },
        {
            "datacoverage": 0.9871,
            "elevation": 8.5,
            "elevationUnit": "METERS",
            "id": "COOP:040227",
            "latitude": 38.01667,
            "longitude": -121.76667,
            "maxdate": "1975-07-01",
            "mindate": "1879-01-01",
            "name": "ANTIOCH FIBREBRD MIL, CA US"
        },
        {
            "datacoverage": 0.9819,
            "elevation": 8.5,
            "elevationUnit": "METERS",
            "id": "GHCND:USC00040227",
            "latitude": 38.01667,
            "longitude": -121.76667,
            "maxdate": "1975-07-31",
            "mindate": "1915-12-01",
            "name": "ANTIOCH FIBREBRD MIL, CA US"
        },
        {
            "datacoverage": 0.7734,
            "elevation": 125,
            "elevationUnit": "METERS",
            "id": "GHCND:USC00040230",
            "latitude": 37.95,
            "longitude": -121.8,
            "maxdate": "1950-08-31",
            "mindate": "1948-07-01",
            "name": "ANTIOCH 5 S, CA US"
        },
        {
            "datacoverage": 0.7511,
            "elevation": 125,
            "elevationUnit": "METERS",
            "id": "COOP:040230",
            "latitude": 37.95,
            "longitude": -121.8,
            "maxdate": "1950-08-08",
            "mindate": "1948-01-01",
            "name": "ANTIOCH 5 S, CA US"
        },
        {
            "datacoverage": 0.869,
            "elevation": 54.3,
            "elevationUnit": "METERS",
            "id": "GHCND:US1CACC0012",
            "latitude": 37.978561,
            "longitude": -121.838116,
            "maxdate": "2020-08-17",
            "mindate": "2009-04-01",
            "name": "ANTIOCH 2.2 WSW, CA US"
        },
        {
            "datacoverage": 0.7376,
            "elevation": 74.7,
            "elevationUnit": "METERS",
            "id": "GHCND:US1CACC0021",
            "latitude": 37.9593,
            "longitude": -121.7811,
            "maxdate": "2015-03-11",
            "mindate": "2010-03-01",
            "name": "ANTIOCH 2.2 SSE, CA US"
        },
        {
            "datacoverage": 1,
            "elevation": 369.1,
            "elevationUnit": "METERS",
            "id": "COOP:040220",
            "latitude": 35.71667,
            "longitude": -120.16667,
            "maxdate": "1942-05-01",
            "mindate": "1931-01-01",
            "name": "ANTELOPE VALLEY, CA US"
        },
        {
            "datacoverage": 1,
            "elevation": 24.1,
            "elevationUnit": "METERS",
            "id": "GHCND:US1CASA0014",
            "latitude": 38.707279,
            "longitude": -121.392509,
            "maxdate": "2010-02-05",
            "mindate": "2008-12-01",
            "name": "ANTELOPE 3.5 W, CA US"
        },
        {
            "datacoverage": 0.9737,
            "elevation": 522.7,
            "elevationUnit": "METERS",
            "id": "COOP:040212",
            "latitude": 38.573,
            "longitude": -122.4405,
            "maxdate": "2015-11-01",
            "mindate": "1939-11-01",
            "name": "ANGWIN PACIFIC UNION COLLEGE, CA US"
        },
        {
            "datacoverage": 1,
            "elevation": 522.7,
            "elevationUnit": "METERS",
            "id": "GHCND:USC00040212",
            "latitude": 38.573,
            "longitude": -122.4405,
            "maxdate": "2020-10-31",
            "mindate": "1940-01-01",
            "name": "ANGWIN PACIFIC UNION COLLEGE, CA US"
        },
        {
            "datacoverage": 0.9643,
            "elevation": 64,
            "elevationUnit": "METERS",
            "id": "COOP:040204",
            "latitude": 35.98333,
            "longitude": -119.48333,
            "maxdate": "1982-03-01",
            "mindate": "1931-01-01",
            "name": "ANGIOLA, CA US"
        },
        {
            "datacoverage": 0.8972,
            "elevation": 64,
            "elevationUnit": "METERS",
            "id": "GHCND:USC00040204",
            "latitude": 35.98333,
            "longitude": -119.48333,
            "maxdate": "1982-03-31",
            "mindate": "1899-01-01",
            "name": "ANGIOLA, CA US"
        },
        {
            "datacoverage": 0.6588,
            "elevation": 249.6,
            "elevationUnit": "METERS",
            "id": "GHCND:US1CASH0064",
            "latitude": 40.474603,
            "longitude": -122.452203,
            "maxdate": "2016-06-02",
            "mindate": "2013-02-01",
            "name": "ANDERSON 8.5 WNW, CA US"
        },
        {
            "datacoverage": 0.349,
            "elevation": 233.2,
            "elevationUnit": "METERS",
            "id": "GHCND:US1CASH0074",
            "latitude": 40.447238,
            "longitude": -122.40894,
            "maxdate": "2020-03-09",
            "mindate": "2017-10-01",
            "name": "ANDERSON 6.0 W, CA US"
        },
        {
            "datacoverage": 0.844,
            "elevation": 223.1,
            "elevationUnit": "METERS",
            "id": "GHCND:US1CASH0029",
            "latitude": 40.427,
            "longitude": -122.388277777778,
            "maxdate": "2011-04-04",
            "mindate": "2009-10-01",
            "name": "ANDERSON 5.2 WSW, CA US"
        },
        {
            "datacoverage": 0.859,
            "elevation": 124.7,
            "elevationUnit": "METERS",
            "id": "GHCND:US1CASH0030",
            "latitude": 40.478452,
            "longitude": -122.260575,
            "maxdate": "2020-08-19",
            "mindate": "2009-10-01",
            "name": "ANDERSON 2.6 NE, CA US"
        },
        {
            "datacoverage": 0.999,
            "elevation": 133.8,
            "elevationUnit": "METERS",
            "id": "GHCND:US1CASH0054",
            "latitude": 40.4593315124512,
            "longitude": -122.318885803223,
            "maxdate": "2013-10-14",
            "mindate": "2012-08-01",
            "name": "ANDERSON 1.5 WNW, CA US"
        },
        {
            "datacoverage": 1,
            "elevation": 71.6,
            "elevationUnit": "METERS",
            "id": "GHCND:USC00040192",
            "latitude": 33.8647,
            "longitude": -117.8425,
            "maxdate": "2020-11-22",
            "mindate": "1989-08-01",
            "name": "ANAHEIM, CA US"
        },
        {
            "datacoverage": 0.9684,
            "elevation": 71.6,
            "elevationUnit": "METERS",
            "id": "COOP:040192",
            "latitude": 33.8647,
            "longitude": -117.8425,
            "maxdate": "2015-11-01",
            "mindate": "1989-08-01",
            "name": "ANAHEIM, CA US"
        },
        {
            "datacoverage": 0.5,
            "elevation": 268.5,
            "elevationUnit": "METERS",
            "id": "GHCND:US1CAOR0022",
            "latitude": 33.835016,
            "longitude": -117.76208,
            "maxdate": "2014-05-08",
            "mindate": "2010-08-01",
            "name": "ANAHEIM HILLS 1.1 SE, CA US"
        },
        {
            "datacoverage": 0.9991,
            "elevation": 230.1,
            "elevationUnit": "METERS",
            "id": "GHCND:US1CAOR0039",
            "latitude": 33.852135,
            "longitude": -117.746946,
            "maxdate": "2020-11-04",
            "mindate": "2014-07-01",
            "name": "ANAHEIM 7.3 E, CA US"
        },
        {
            "datacoverage": 1,
            "elevation": 90.8,
            "elevationUnit": "METERS",
            "id": "GHCND:US1CAOR0021",
            "latitude": 33.863231,
            "longitude": -117.791753,
            "maxdate": "2020-10-25",
            "mindate": "2010-01-01",
            "name": "ANAHEIM 4.9 ENE, CA US"
        },
        {
            "datacoverage": 1,
            "elevation": 114,
            "elevationUnit": "METERS",
            "id": "GHCND:US1CAOR0029",
            "latitude": 33.846975,
            "longitude": -117.787126,
            "maxdate": "2018-02-27",
            "mindate": "2011-11-01",
            "name": "ANAHEIM 4.9 E, CA US"
        },
        {
            "datacoverage": 1,
            "elevation": 43,
            "elevationUnit": "METERS",
            "id": "GHCND:USC00040188",
            "latitude": 34.01667,
            "longitude": -119.36667,
            "maxdate": "1954-06-30",
            "mindate": "1948-01-01",
            "name": "ANACAPA ISLAND, CA "
        },
        {
            "datacoverage": 1,
            "elevation": 43,
            "elevationUnit": "METERS",
            "id": "COOP:040188",
            "latitude": 34.01667,
            "longitude": -119.36667,
            "maxdate": "1954-06-01",
            "mindate": "1946-08-01",
            "name": "ANACAPA ISLAND, CA "
        },
        {
            "datacoverage": 1,
            "elevation": 325.5,
            "elevationUnit": "METERS",
            "id": "GHCND:USR0000CAMM",
            "latitude": 33.3814,
            "longitude": -117.2856,
            "maxdate": "2011-07-25",
            "mindate": "2001-06-01",
            "name": "AMMO DUMP CALIFORNIA, CA US"
        },
        {
            "datacoverage": 0.4839,
            "elevation": 97.2,
            "elevationUnit": "METERS",
            "id": "GHCND:US1CANP0006",
            "latitude": 38.210167,
            "longitude": -122.217156,
            "maxdate": "2014-04-27",
            "mindate": "2009-03-01",
            "name": "AMERICAN CANYON 3.5 NE, CA US"
        },
        {
            "datacoverage": 0.8136,
            "elevation": 11.3,
            "elevationUnit": "METERS",
            "id": "GHCND:US1CANP0008",
            "latitude": 38.169395,
            "longitude": -122.260479,
            "maxdate": "2017-06-12",
            "mindate": "2010-01-01",
            "name": "AMERICAN CANYON 0.3 S, CA US"
        },
        {
            "datacoverage": 0.833,
            "elevation": 197.5,
            "elevationUnit": "METERS",
            "id": "GHCND:USC00040176",
            "latitude": 34.5591,
            "longitude": -115.7441,
            "maxdate": "2020-07-18",
            "mindate": "1948-07-01",
            "name": "AMBOY, CA US"
        },
        {
            "datacoverage": 0.1166,
            "elevation": 197.5,
            "elevationUnit": "METERS",
            "id": "COOP:040176",
            "latitude": 34.5591,
            "longitude": -115.7441,
            "maxdate": "2015-11-01",
            "mindate": "1948-01-01",
            "name": "AMBOY, CA US"
        },
        {
            "datacoverage": 1,
            "elevation": 387.7,
            "elevationUnit": "METERS",
            "id": "GHCND:USC00040174",
            "latitude": 34.16139,
            "longitude": -115.80444,
            "maxdate": "2011-08-12",
            "mindate": "2009-02-01",
            "name": "AMBOY ROAD EAST, CA US"
        },